name,store_brand,store_country,city,address,latitude,longitude,phone,opening_hours,services
Aseer Time - Downtown,Aseer Time,Saudi Arabia,Riyadh,"King Fahd Road, Riyadh",24.7136,46.6753,+966 11 123 4567,"Mon-Sat 10:00-22:00","Watches, Repairs, Gift Wrapping"
Farooj Abu Alabd - City Mall,Farooj Abu Alabd,Saudi Arabia,Jeddah,"Tahlia Street, Jeddah",21.5433,39.1728,+966 12 234 5678,"Sun-Thu 09:00-23:00","Dine-in, Delivery"
Papa Knafah - Al Khobar,Papa Knafah,Saudi Arabia,Al Khobar,"Prince Turki Street, Al Khobar",26.2172,50.1971,+966 13 345 6789,"Daily 12:00-24:00","Dine-in, Takeaway"
Aseer Time - Dubai Mall,Aseer Time,United Arab Emirates,Dubai,"Dubai Mall, Downtown Dubai",25.1972,55.2796,+971 4 456 7890,"Daily 10:00-22:00","Watches, Engraving"
Farooj Abu Alabd - Cairo,Farooj Abu Alabd,Egypt,Cairo,"Zamalek District, Cairo",30.0596,31.2196,+20 2 234 5678,"Daily 10:00-23:00","Dine-in, Delivery, Catering"
Aseer Time - New York,Aseer Time,United States,New York,"Times Square, New York",40.7580,-73.9855,+1 212 555 0100,"Daily 10:00-22:00","Watches, Repairs, Gift Wrapping"
Farooj Abu Alabd - Los Angeles,Farooj Abu Alabd,United States,Los Angeles,"Sunset Blvd, Los Angeles",34.0928,-118.3287,+1 323 555 0200,"Daily 11:00-23:00","Dine-in, Takeaway, Delivery"
Aseer Time - Madrid,Aseer Time,Spain,Madrid,"Gran Via, Madrid",40.4203,-3.7037,+34 91 123 4567,"Mon-Sat 10:00-21:00","Watches, Repairs"
Papa Knafah - Barcelona,Papa Knafah,Spain,Barcelona,"La Rambla, Barcelona",41.3825,2.1770,+34 93 234 5678,"Daily 12:00-24:00","Dine-in, Takeaway"
